[
    {
        "OBJECTID": "133",
        "osm_id": "3452543044",
        "code": "2301",
        "fclass": "restaurant",
        "name": "Mahlzeit im Zoo",
        "type": "Austrian cuisine",
        "rating": "4.5",
        "user_ratings_total": "2",
        "latitude": "47.7564194",
        "longitude": "13.0652756"
    },
    {
        "OBJECTID": "151",
        "osm_id": "4378528290",
        "code": "2301",
        "fclass": "restaurant",
        "name": "Schachlwirt",
        "type": "Austrian cuisine",
        "rating": "4.4",
        "user_ratings_total": "764",
        "latitude": "47.7604633",
        "longitude": "13.0167641"
    },
    {
        "OBJECTID": "101",
        "osm_id": "1986986613",
        "code": "2301",
        "fclass": "restaurant",
        "name": "Gasthaus zu Schloss Hellbrunn",
        "type": "Austrian cuisine",
        "rating": "4.3",
        "user_ratings_total": "234",
        "latitude": "47.7625556",
        "longitude": "13.0605778"
    },
    {
        "OBJECTID": "18",
        "osm_id": "473877984",
        "code": "2301",
        "fclass": "restaurant",
        "name": "Everest",
        "type": "Nepalese cuisine",
        "rating": "4.4",
        "user_ratings_total": "363",
        "latitude": "47.7712762",
        "longitude": "13.071351"
    },
    {
        "OBJECTID": "185",
        "osm_id": "5373647900",
        "code": "2301",
        "fclass": "restaurant",
        "name": "Amadeo",
        "type": "Austrian cuisine",
        "rating": "4.1",
        "user_ratings_total": "1306",
        "latitude": "47.7728249",
        "longitude": "13.0699036"
    },
    {
        "OBJECTID": "162",
        "osm_id": "4892304583",
        "code": "2301",
        "fclass": "restaurant",
        "name": "Pizzeria Cielo",
        "type": "Italian cuisine",
        "rating": "4.5",
        "user_ratings_total": "213",
        "latitude": "47.7750725",
        "longitude": "13.0421454"
    },
    {
        "OBJECTID": "262",
        "osm_id": "11492539799",
        "code": "2301",
        "fclass": "restaurant",
        "name": "Lakhi's Indian Kitchen",
        "type": "Indian cuisine",
        "rating": "4.8",
        "user_ratings_total": "775",
        "latitude": "47.777808",
        "longitude": "13.0661069"
    },
    {
        "OBJECTID": "256",
        "osm_id": "10764631157",
        "code": "2301",
        "fclass": "restaurant",
        "name": "Reinhartshuber Im Gwandhaus",
        "type": "Austrian cuisine",
        "rating": "4.4",
        "user_ratings_total": "81",
        "latitude": "47.7789955",
        "longitude": "13.057374"
    },
    {
        "OBJECTID": "224",
        "osm_id": "7070079386",
        "code": "2301",
        "fclass": "restaurant",
        "name": "Cicchetti Salzburg",
        "type": "Italian cuisine",
        "rating": "4.7",
        "user_ratings_total": "252",
        "latitude": "47.7816296",
        "longitude": "13.0495484"
    },
    {
        "OBJECTID": "192",
        "osm_id": "5531905236",
        "code": "2301",
        "fclass": "restaurant",
        "name": "Prosecco",
        "type": "Italian cuisine",
        "rating": "4.6",
        "user_ratings_total": "194",
        "latitude": "47.7860807",
        "longitude": "13.0522282"
    },
    {
        "OBJECTID": "183",
        "osm_id": "5347857364",
        "code": "2301",
        "fclass": "restaurant",
        "name": "Gasthof Pension Edelweiß",
        "type": "Austrian cuisine",
        "rating": "4.1",
        "user_ratings_total": "34",
        "latitude": "47.786209",
        "longitude": "13.0169768"
    },
    {
        "OBJECTID": "193",
        "osm_id": "5554512625",
        "code": "2301",
        "fclass": "restaurant",
        "name": "La Cantinetta",
        "type": "Italian cuisine",
        "rating": "4.6",
        "user_ratings_total": "677",
        "latitude": "47.7862867",
        "longitude": "13.0656406"
    },
    {
        "OBJECTID": "189",
        "osm_id": "5420746063",
        "code": "2301",
        "fclass": "restaurant",
        "name": "my Indigo Herrnau",
        "type": "African cuisine",
        "rating": "4.2",
        "user_ratings_total": "532",
        "latitude": "47.786291",
        "longitude": "13.0661534"
    },
    {
        "OBJECTID": "141",
        "osm_id": "3866268266",
        "code": "2301",
        "fclass": "restaurant",
        "name": "Raschhofer's Rossbräu Herrnau",
        "type": "Austrian cuisine",
        "rating": "4.2",
        "user_ratings_total": "1624",
        "latitude": "47.7863816",
        "longitude": "13.0661019"
    },
    {
        "OBJECTID": "20",
        "osm_id": "503846575",
        "code": "2301",
        "fclass": "restaurant",
        "name": "Gasthof Schloss Aigen",
        "type": "Austrian cuisine",
        "rating": "4.7",
        "user_ratings_total": "650",
        "latitude": "47.7864371",
        "longitude": "13.0887392"
    },
    {
        "OBJECTID": "33",
        "osm_id": "769729858",
        "code": "2301",
        "fclass": "restaurant",
        "name": "Rauchenbühelhütte",
        "type": "Austrian cuisine",
        "rating": "4.8",
        "user_ratings_total": "84",
        "latitude": "47.7872354",
        "longitude": "13.1154592"
    },
    {
        "OBJECTID": "24",
        "osm_id": "623053826",
        "code": "2301",
        "fclass": "restaurant",
        "name": "Marchhart's",
        "type": "Thai cuisine",
        "rating": "4.6",
        "user_ratings_total": "446",
        "latitude": "47.788766",
        "longitude": "13.0366016"
    },
    {
        "OBJECTID": "145",
        "osm_id": "4142834466",
        "code": "2301",
        "fclass": "restaurant",
        "name": "Mensa Mozarteum",
        "type": "Austrian cuisine",
        "rating": "3.5",
        "user_ratings_total": "44",
        "latitude": "47.789158",
        "longitude": "13.060248"
    },
    {
        "OBJECTID": "171",
        "osm_id": "5312094437",
        "code": "2301",
        "fclass": "restaurant",
        "name": "Alpenstüberl",
        "type": "Austrian cuisine",
        "rating": "4.6",
        "user_ratings_total": "320",
        "latitude": "47.7892949",
        "longitude": "13.0656406"
    },
    {
        "OBJECTID": "164",
        "osm_id": "4942793424",
        "code": "2301",
        "fclass": "restaurant",
        "name": "Ristorante Da Giacomo",
        "type": "Italian cuisine",
        "rating": "4.3",
        "user_ratings_total": "1461",
        "latitude": "47.7893681",
        "longitude": "13.0505944"
    },
    {
        "OBJECTID": "271",
        "osm_id": "12059302093",
        "code": "2301",
        "fclass": "restaurant",
        "name": "Redefine",
        "type": "Austrian cuisine",
        "rating": "5",
        "user_ratings_total": "14",
        "latitude": "47.7899035",
        "longitude": "13.0503857"
    },
    {
        "OBJECTID": "92",
        "osm_id": "1780540869",
        "code": "2301",
        "fclass": "restaurant",
        "name": "Restaurant Brunnauer",
        "type": "Austrian cuisine",
        "rating": "4.8",
        "user_ratings_total": "487",
        "latitude": "47.7902251",
        "longitude": "13.0476063"
    },
    {
        "OBJECTID": "81",
        "osm_id": "1609281790",
        "code": "2301",
        "fclass": "restaurant",
        "name": "Nestroy",
        "type": "Austrian cuisine",
        "rating": "4.8",
        "user_ratings_total": "145",
        "latitude": "47.7927407",
        "longitude": "13.0514177"
    },
    {
        "OBJECTID": "160",
        "osm_id": "4779777260",
        "code": "2301",
        "fclass": "restaurant",
        "name": "Kathmandu",
        "type": "Nepalese cuisine",
        "rating": "4.5",
        "user_ratings_total": "429",
        "latitude": "47.7927778",
        "longitude": "13.0286111"
    },
    {
        "OBJECTID": "120",
        "osm_id": "2655730669",
        "code": "2301",
        "fclass": "restaurant",
        "name": "Amarita Thai Kitchen Nonntal",
        "type": "Thai cuisine",
        "rating": "4.7",
        "user_ratings_total": "45",
        "latitude": "47.7932111",
        "longitude": "13.0559955"
    },
    {
        "OBJECTID": "93",
        "osm_id": "1793672363",
        "code": "2301",
        "fclass": "restaurant",
        "name": "Ikarus",
        "type": "Austrian cuisine",
        "rating": "4.7",
        "user_ratings_total": "476",
        "latitude": "47.7936195",
        "longitude": "13.0078326"
    },
    {
        "OBJECTID": "11",
        "osm_id": "448637176",
        "code": "2301",
        "fclass": "restaurant",
        "name": "Stiegl Bräustüberl",
        "type": "Austrian cuisine",
        "rating": "4.5",
        "user_ratings_total": "3834",
        "latitude": "47.7936849",
        "longitude": "13.0214374"
    },
    {
        "OBJECTID": "26",
        "osm_id": "662565622",
        "code": "2301",
        "fclass": "restaurant",
        "name": "ARGE Beisl",
        "type": "Austrian cuisine",
        "rating": "4.4",
        "user_ratings_total": "509",
        "latitude": "47.7940137",
        "longitude": "13.0560057"
    },
    {
        "OBJECTID": "197",
        "osm_id": "5740635622",
        "code": "2301",
        "fclass": "restaurant",
        "name": "Paradoxini",
        "type": "Austrian cuisine",
        "rating": "4.7",
        "user_ratings_total": "359",
        "latitude": "47.7940763",
        "longitude": "13.0511815"
    },
    {
        "OBJECTID": "110",
        "osm_id": "2377549055",
        "code": "2301",
        "fclass": "restaurant",
        "name": "Lemonchilli",
        "type": "Austrian cuisine",
        "rating": "4.3",
        "user_ratings_total": "1077",
        "latitude": "47.7944502",
        "longitude": "13.0508213"
    },
    {
        "OBJECTID": "31",
        "osm_id": "724047678",
        "code": "2301",
        "fclass": "restaurant",
        "name": "Burgschenke",
        "type": "Austrian cuisine",
        "rating": "3.1",
        "user_ratings_total": "296",
        "latitude": "47.7946417",
        "longitude": "13.0475987"
    },
    {
        "OBJECTID": "251",
        "osm_id": "9841630116",
        "code": "2301",
        "fclass": "restaurant",
        "name": "Annapurna",
        "type": "Nepalese cuisine",
        "rating": "4.3",
        "user_ratings_total": "106",
        "latitude": "47.7949288",
        "longitude": "13.0294966"
    },
    {
        "OBJECTID": "19",
        "osm_id": "479173768",
        "code": "2301",
        "fclass": "restaurant",
        "name": "Süd Garden",
        "type": "Austrian cuisine",
        "rating": "4.3",
        "user_ratings_total": "801",
        "latitude": "47.7950191",
        "longitude": "13.0510039"
    },
    {
        "OBJECTID": "17",
        "osm_id": "470858051",
        "code": "2301",
        "fclass": "restaurant",
        "name": "Festungsrestaurant",
        "type": "Austrian cuisine",
        "rating": "3.8",
        "user_ratings_total": "1190",
        "latitude": "47.7950275",
        "longitude": "13.0466"
    },
    {
        "OBJECTID": "241",
        "osm_id": "8200045521",
        "code": "2301",
        "fclass": "restaurant",
        "name": "Casa Antonio",
        "type": "Italian cuisine",
        "rating": "4.7",
        "user_ratings_total": "360",
        "latitude": "47.795747",
        "longitude": "13.0528979"
    },
    {
        "OBJECTID": "74",
        "osm_id": "1423994353",
        "code": "2301",
        "fclass": "restaurant",
        "name": "Wastlwirt",
        "type": "Austrian cuisine",
        "rating": "4.4",
        "user_ratings_total": "764",
        "latitude": "47.7960472",
        "longitude": "13.0196629"
    },
    {
        "OBJECTID": "14",
        "osm_id": "470270797",
        "code": "2301",
        "fclass": "restaurant",
        "name": "Gösser Stube",
        "type": "Austrian cuisine",
        "rating": "4.7",
        "user_ratings_total": "1621",
        "latitude": "47.7960537",
        "longitude": "13.0300383"
    },
    {
        "OBJECTID": "59",
        "osm_id": "880353992",
        "code": "2301",
        "fclass": "restaurant",
        "name": "Stieglkeller",
        "type": "Austrian cuisine",
        "rating": "4.2",
        "user_ratings_total": "3853",
        "latitude": "47.7961548",
        "longitude": "13.0472866"
    },
    {
        "OBJECTID": "238",
        "osm_id": "8003626864",
        "code": "2301",
        "fclass": "restaurant",
        "name": "FIT.smartfood",
        "type": "Austrian cuisine",
        "rating": "4.6",
        "user_ratings_total": "696",
        "latitude": "47.7962718",
        "longitude": "13.0248765"
    },
    {
        "OBJECTID": "15",
        "osm_id": "470857065",
        "code": "2301",
        "fclass": "restaurant",
        "name": "Riedenburg",
        "type": "Austrian cuisine",
        "rating": "4.7",
        "user_ratings_total": "287",
        "latitude": "47.7963511",
        "longitude": "13.0304463"
    },
    {
        "OBJECTID": "85",
        "osm_id": "1721578343",
        "code": "2301",
        "fclass": "restaurant",
        "name": "Pauli Stubm",
        "type": "Austrian cuisine",
        "rating": "4.7",
        "user_ratings_total": "1621",
        "latitude": "47.7964389",
        "longitude": "13.04825"
    },
    {
        "OBJECTID": "228",
        "osm_id": "7245746950",
        "code": "2301",
        "fclass": "restaurant",
        "name": "Gasthaus Hinterbrühl",
        "type": "Austrian cuisine",
        "rating": "4.5",
        "user_ratings_total": "750",
        "latitude": "47.7965221",
        "longitude": "13.0524659"
    },
    {
        "OBJECTID": "106",
        "osm_id": "2245185268",
        "code": "2301",
        "fclass": "restaurant",
        "name": "La Campana Da Enzo",
        "type": "Italian cuisine",
        "rating": "4.3",
        "user_ratings_total": "160",
        "latitude": "47.7965586",
        "longitude": "13.0516245"
    },
    {
        "OBJECTID": "72",
        "osm_id": "1408403438",
        "code": "2301",
        "fclass": "restaurant",
        "name": "Real 80's",
        "type": "Austrian cuisine",
        "rating": "3.8",
        "user_ratings_total": "52",
        "latitude": "47.7966669",
        "longitude": "13.0538048"
    },
    {
        "OBJECTID": "142",
        "osm_id": "3885837986",
        "code": "2301",
        "fclass": "restaurant",
        "name": "Alaturka Grill",
        "type": "Turkish cuisine",
        "rating": "4.4",
        "user_ratings_total": "285",
        "latitude": "47.7967427",
        "longitude": "13.0226988"
    },
    {
        "OBJECTID": "230",
        "osm_id": "7750329184",
        "code": "2301",
        "fclass": "restaurant",
        "name": "Ristorante Roma",
        "type": "Italian cuisine",
        "rating": "4.3",
        "user_ratings_total": "152",
        "latitude": "47.7967821",
        "longitude": "13.0224523"
    },
    {
        "OBJECTID": "67",
        "osm_id": "1091992176",
        "code": "2301",
        "fclass": "restaurant",
        "name": "Trattoria Domani",
        "type": "Italian cuisine",
        "rating": "4.1",
        "user_ratings_total": "797",
        "latitude": "47.7969827",
        "longitude": "13.0493073"
    },
    {
        "OBJECTID": "108",
        "osm_id": "2246803501",
        "code": "2301",
        "fclass": "restaurant",
        "name": "Sankt Peter Stiftskulinarium",
        "type": "Austrian cuisine",
        "rating": "4.3",
        "user_ratings_total": "2782",
        "latitude": "47.7970354",
        "longitude": "13.0442094"
    },
    {
        "OBJECTID": "184",
        "osm_id": "5373337984",
        "code": "2301",
        "fclass": "restaurant",
        "name": "Canton China",
        "type": "Chinese cuisine",
        "rating": "3.8",
        "user_ratings_total": "302",
        "latitude": "47.7972959",
        "longitude": "13.0374283"
    },
    {
        "OBJECTID": "196",
        "osm_id": "5740624721",
        "code": "2301",
        "fclass": "restaurant",
        "name": "Eleven 11:11 Eleven",
        "type": "Arabic cuisine",
        "rating": "4.5",
        "user_ratings_total": "1358",
        "latitude": "47.7973591",
        "longitude": "13.0492405"
    },
    {
        "OBJECTID": "35",
        "osm_id": "795676178",
        "code": "2301",
        "fclass": "restaurant",
        "name": "Osteria Cavalli",
        "type": "Italian cuisine",
        "rating": "4.5",
        "user_ratings_total": "2001",
        "latitude": "47.7973859",
        "longitude": "13.032535"
    },
    {
        "OBJECTID": "65",
        "osm_id": "935685793",
        "code": "2301",
        "fclass": "restaurant",
        "name": "Resch & Lieblich",
        "type": "Austrian cuisine",
        "rating": "4.4",
        "user_ratings_total": "181",
        "latitude": "47.7973928",
        "longitude": "13.0428759"
    },
    {
        "OBJECTID": "147",
        "osm_id": "4209868189",
        "code": "2301",
        "fclass": "restaurant",
        "name": "Wokman",
        "type": "Vietnamese cuisine",
        "rating": "4.5",
        "user_ratings_total": "545",
        "latitude": "47.7974084",
        "longitude": "13.0487946"
    },
    {
        "OBJECTID": "68",
        "osm_id": "1091992188",
        "code": "2301",
        "fclass": "restaurant",
        "name": "Burrito Factory",
        "type": "Mexican cuisine",
        "rating": "4.4",
        "user_ratings_total": "864",
        "latitude": "47.7977105",
        "longitude": "13.0490507"
    },
    {
        "OBJECTID": "207",
        "osm_id": "6274090738",
        "code": "2301",
        "fclass": "restaurant",
        "name": "Mark Volxküche",
        "type": "Austrian cuisine",
        "rating": "4.5",
        "user_ratings_total": "142",
        "latitude": "47.7977449",
        "longitude": "13.0494452"
    },
    {
        "OBJECTID": "200",
        "osm_id": "5825383274",
        "code": "2301",
        "fclass": "restaurant",
        "name": "Apetyt",
        "type": "Polish cuisine",
        "rating": "4.8",
        "user_ratings_total": "267",
        "latitude": "47.7978279",
        "longitude": "13.0494207"
    },
    {
        "OBJECTID": "233",
        "osm_id": "7866163985",
        "code": "2301",
        "fclass": "restaurant",
        "name": "Jakob's Esskultur",
        "type": "Austrian cuisine",
        "rating": "4.9",
        "user_ratings_total": "167",
        "latitude": "47.7978751",
        "longitude": "13.0494207"
    },
    {
        "OBJECTID": "13",
        "osm_id": "467150207",
        "code": "2301",
        "fclass": "restaurant",
        "name": "Sto Bene",
        "type": "Italian cuisine",
        "rating": "4.6",
        "user_ratings_total": "1064",
        "latitude": "47.7980095",
        "longitude": "13.0489114"
    },
    {
        "OBJECTID": "16",
        "osm_id": "470857538",
        "code": "2301",
        "fclass": "restaurant",
        "name": "Irodion",
        "type": "Greek cuisine",
        "rating": "4.5",
        "user_ratings_total": "2021",
        "latitude": "47.7980565",
        "longitude": "13.0303136"
    },
    {
        "OBJECTID": "66",
        "osm_id": "993115617",
        "code": "2301",
        "fclass": "restaurant",
        "name": "Zum Zirkelwirt",
        "type": "Austrian cuisine",
        "rating": "4.4",
        "user_ratings_total": "3985",
        "latitude": "47.7981296",
        "longitude": "13.0495145"
    },
    {
        "OBJECTID": "195",
        "osm_id": "5740605722",
        "code": "2301",
        "fclass": "restaurant",
        "name": "Pfeiferstüberl",
        "type": "Austrian cuisine",
        "rating": "3.8",
        "user_ratings_total": "62",
        "latitude": "47.7982426",
        "longitude": "13.0492893"
    },
    {
        "OBJECTID": "107",
        "osm_id": "2245185270",
        "code": "2301",
        "fclass": "restaurant",
        "name": "Zwettler's Stiftskeller",
        "type": "Austrian cuisine",
        "rating": "4.5",
        "user_ratings_total": "4740",
        "latitude": "47.7983455",
        "longitude": "13.0485631"
    },
    {
        "OBJECTID": "7",
        "osm_id": "268243672",
        "code": "2301",
        "fclass": "restaurant",
        "name": "Triangel",
        "type": "Austrian cuisine",
        "rating": "4.2",
        "user_ratings_total": "1061",
        "latitude": "47.7983692",
        "longitude": "13.0430806"
    },
    {
        "OBJECTID": "102",
        "osm_id": "2114191314",
        "code": "2301",
        "fclass": "restaurant",
        "name": "Lotus",
        "type": "Chinese cuisine",
        "rating": "5",
        "user_ratings_total": "4",
        "latitude": "47.7983781",
        "longitude": "13.0489356"
    },
    {
        "OBJECTID": "21",
        "osm_id": "529100314",
        "code": "2301",
        "fclass": "restaurant",
        "name": "Meet2eat",
        "type": "Austrian cuisine",
        "rating": "4.9",
        "user_ratings_total": "1226",
        "latitude": "47.7984748",
        "longitude": "13.0073321"
    },
    {
        "OBJECTID": "115",
        "osm_id": "2519507799",
        "code": "2301",
        "fclass": "restaurant",
        "name": "Haus Wartenberg",
        "type": "Austrian cuisine",
        "rating": "4",
        "user_ratings_total": "383",
        "latitude": "47.7985481",
        "longitude": "13.0293353"
    },
    {
        "OBJECTID": "34",
        "osm_id": "790712256",
        "code": "2301",
        "fclass": "restaurant",
        "name": "Ristorante Pizza e Pasta Magno",
        "type": "Italian cuisine",
        "rating": "4.3",
        "user_ratings_total": "396",
        "latitude": "47.7990838",
        "longitude": "13.0480855"
    },
    {
        "OBJECTID": "214",
        "osm_id": "6684198622",
        "code": "2301",
        "fclass": "restaurant",
        "name": "Zipfer Bierhaus",
        "type": "Austrian cuisine",
        "rating": "4.4",
        "user_ratings_total": "2726",
        "latitude": "47.7991532",
        "longitude": "13.0440499"
    },
    {
        "OBJECTID": "134",
        "osm_id": "3463471138",
        "code": "2301",
        "fclass": "restaurant",
        "name": "K+K Restaurants am Waagplatz",
        "type": "Austrian cuisine",
        "rating": "4.1",
        "user_ratings_total": "556",
        "latitude": "47.7992566",
        "longitude": "13.0470971"
    },
    {
        "OBJECTID": "215",
        "osm_id": "6731967485",
        "code": "2301",
        "fclass": "restaurant",
        "name": "Gasthof Goldgasse",
        "type": "Austrian cuisine",
        "rating": "4.4",
        "user_ratings_total": "1223",
        "latitude": "47.799384",
        "longitude": "13.045883"
    },
    {
        "OBJECTID": "49",
        "osm_id": "815555574",
        "code": "2301",
        "fclass": "restaurant",
        "name": "Camino Essbar",
        "type": "Austrian cuisine",
        "rating": "2.8",
        "user_ratings_total": "643",
        "latitude": "47.7995878",
        "longitude": "13.0463732"
    },
    {
        "OBJECTID": "122",
        "osm_id": "2899871905",
        "code": "2301",
        "fclass": "restaurant",
        "name": "Berghaus",
        "type": "Austrian cuisine",
        "rating": "4.6",
        "user_ratings_total": "164",
        "latitude": "47.7996386",
        "longitude": "13.0420832"
    },
    {
        "OBJECTID": "39",
        "osm_id": "814217497",
        "code": "2301",
        "fclass": "restaurant",
        "name": "Blaue Gans",
        "type": "Austrian cuisine",
        "rating": "4.5",
        "user_ratings_total": "235",
        "latitude": "47.7996582",
        "longitude": "13.0407556"
    },
    {
        "OBJECTID": "247",
        "osm_id": "9568786590",
        "code": "2301",
        "fclass": "restaurant",
        "name": "Restaurant Herzl",
        "type": "Austrian cuisine",
        "rating": "4.3",
        "user_ratings_total": "441",
        "latitude": "47.7997093",
        "longitude": "13.0411891"
    },
    {
        "OBJECTID": "9",
        "osm_id": "288838629",
        "code": "2301",
        "fclass": "restaurant",
        "name": "Stadt Alm",
        "type": "Austrian cuisine",
        "rating": "4.4",
        "user_ratings_total": "34",
        "latitude": "47.7997218",
        "longitude": "13.0392402"
    },
    {
        "OBJECTID": "8",
        "osm_id": "268243678",
        "code": "2301",
        "fclass": "restaurant",
        "name": "Wirtshaus Elefant",
        "type": "Austrian cuisine",
        "rating": "4.4",
        "user_ratings_total": "1741",
        "latitude": "47.7997768",
        "longitude": "13.0444146"
    },
    {
        "OBJECTID": "118",
        "osm_id": "2574087799",
        "code": "2301",
        "fclass": "restaurant",
        "name": "Zum Mohren",
        "type": "Austrian cuisine",
        "rating": "3.7",
        "user_ratings_total": "1015",
        "latitude": "47.7998934",
        "longitude": "13.0463427"
    },
    {
        "OBJECTID": "117",
        "osm_id": "2525212817",
        "code": "2301",
        "fclass": "restaurant",
        "name": "Zur goldenen Kugel",
        "type": "Austrian cuisine",
        "rating": "4",
        "user_ratings_total": "2548",
        "latitude": "47.7999581",
        "longitude": "13.045802"
    },
    {
        "OBJECTID": "236",
        "osm_id": "7900611285",
        "code": "2301",
        "fclass": "restaurant",
        "name": "Osteria Patricio Fellini",
        "type": "Italian cuisine",
        "rating": "4.3",
        "user_ratings_total": "863",
        "latitude": "47.7999968",
        "longitude": "13.045484"
    },
    {
        "OBJECTID": "44",
        "osm_id": "814235352",
        "code": "2301",
        "fclass": "restaurant",
        "name": "Meissl & Schadn",
        "type": "Austrian cuisine",
        "rating": "4.3",
        "user_ratings_total": "2013",
        "latitude": "47.8001398",
        "longitude": "13.0403195"
    },
    {
        "OBJECTID": "41",
        "osm_id": "814235265",
        "code": "2301",
        "fclass": "restaurant",
        "name": "Pizza, Pasta, Spaghetti & Co",
        "type": "Italian cuisine",
        "rating": "3.3",
        "user_ratings_total": "1504",
        "latitude": "47.800154",
        "longitude": "13.0430535"
    },
    {
        "OBJECTID": "149",
        "osm_id": "4307251100",
        "code": "2301",
        "fclass": "restaurant",
        "name": "Kim Sushi&Asiaküche",
        "type": "Japanese cuisine",
        "rating": "4.2",
        "user_ratings_total": "853",
        "latitude": "47.8002014",
        "longitude": "13.0429794"
    },
    {
        "OBJECTID": "1",
        "osm_id": "266071059",
        "code": "2301",
        "fclass": "restaurant",
        "name": "my Indigo Staatsbrücke",
        "type": "African cuisine",
        "rating": "4.2",
        "user_ratings_total": "759",
        "latitude": "47.8002451",
        "longitude": "13.0453174"
    },
    {
        "OBJECTID": "38",
        "osm_id": "814217483",
        "code": "2301",
        "fclass": "restaurant",
        "name": "Yuen China Restaurant",
        "type": "Chinese cuisine",
        "rating": "4.6",
        "user_ratings_total": "1090",
        "latitude": "47.800327",
        "longitude": "13.0423285"
    },
    {
        "OBJECTID": "265",
        "osm_id": "11811311005",
        "code": "2301",
        "fclass": "restaurant",
        "name": "Gourmet Pi",
        "type": "Austrian cuisine",
        "rating": "4.6",
        "user_ratings_total": "167",
        "latitude": "47.8003658",
        "longitude": "13.0413534"
    },
    {
        "OBJECTID": "42",
        "osm_id": "814235295",
        "code": "2301",
        "fclass": "restaurant",
        "name": "Gasthof Wilder Mann",
        "type": "Austrian cuisine",
        "rating": "4.2",
        "user_ratings_total": "1347",
        "latitude": "47.8003705",
        "longitude": "13.0425464"
    },
    {
        "OBJECTID": "40",
        "osm_id": "814235237",
        "code": "2301",
        "fclass": "restaurant",
        "name": "Pan e Vin",
        "type": "Italian cuisine",
        "rating": "4.5",
        "user_ratings_total": "177",
        "latitude": "47.800386",
        "longitude": "13.0393403"
    },
    {
        "OBJECTID": "96",
        "osm_id": "1839958172",
        "code": "2301",
        "fclass": "restaurant",
        "name": "Zum Eulenspiegel",
        "type": "Austrian cuisine",
        "rating": "4",
        "user_ratings_total": "1630",
        "latitude": "47.8004255",
        "longitude": "13.0435158"
    },
    {
        "OBJECTID": "97",
        "osm_id": "1911378358",
        "code": "2301",
        "fclass": "restaurant",
        "name": "Hanas Rasoi",
        "type": "Indian cuisine",
        "rating": "3.8",
        "user_ratings_total": "767",
        "latitude": "47.800437",
        "longitude": "13.042701"
    },
    {
        "OBJECTID": "131",
        "osm_id": "3244745976",
        "code": "2301",
        "fclass": "restaurant",
        "name": "La Stella",
        "type": "Italian cuisine",
        "rating": "4.2",
        "user_ratings_total": "2361",
        "latitude": "47.8004719",
        "longitude": "13.0417464"
    },
    {
        "OBJECTID": "2",
        "osm_id": "268056323",
        "code": "2301",
        "fclass": "restaurant",
        "name": "Japan Restaurant",
        "type": "Japanese cuisine",
        "rating": "4.4",
        "user_ratings_total": "681",
        "latitude": "47.8004899",
        "longitude": "13.0423913"
    },
    {
        "OBJECTID": "275",
        "osm_id": "12387803323",
        "code": "2301",
        "fclass": "restaurant",
        "name": "Halal",
        "type": "Austrian cuisine",
        "rating": "4.1",
        "user_ratings_total": "449",
        "latitude": "47.8005054",
        "longitude": "13.0429519"
    },
    {
        "OBJECTID": "46",
        "osm_id": "814276662",
        "code": "2301",
        "fclass": "restaurant",
        "name": "Peter's Vinothek",
        "type": "Austrian cuisine",
        "rating": "4.7",
        "user_ratings_total": "55",
        "latitude": "47.8005162",
        "longitude": "13.0392008"
    },
    {
        "OBJECTID": "37",
        "osm_id": "814204082",
        "code": "2301",
        "fclass": "restaurant",
        "name": "Burgerista",
        "type": "American fast food",
        "rating": "4.3",
        "user_ratings_total": "5047",
        "latitude": "47.8005747",
        "longitude": "13.0429484"
    },
    {
        "OBJECTID": "248",
        "osm_id": "9568786591",
        "code": "2301",
        "fclass": "restaurant",
        "name": "Tasty Yuki",
        "type": "Japanese cuisine",
        "rating": "4.5",
        "user_ratings_total": "262",
        "latitude": "47.8005851",
        "longitude": "13.0414994"
    },
    {
        "OBJECTID": "155",
        "osm_id": "4525140489",
        "code": "2301",
        "fclass": "restaurant",
        "name": "Restaurant Hayat",
        "type": "Turkish cuisine",
        "rating": "4.3",
        "user_ratings_total": "126",
        "latitude": "47.800664",
        "longitude": "13.051318"
    },
    {
        "OBJECTID": "136",
        "osm_id": "3556986055",
        "code": "2301",
        "fclass": "restaurant",
        "name": "Sternbräu",
        "type": "Austrian cuisine",
        "rating": "4.2",
        "user_ratings_total": "10769",
        "latitude": "47.8007047",
        "longitude": "13.0412803"
    },
    {
        "OBJECTID": "266",
        "osm_id": "11818296276",
        "code": "2301",
        "fclass": "restaurant",
        "name": "YOJI",
        "type": "Chinese cuisine",
        "rating": "4.9",
        "user_ratings_total": "347",
        "latitude": "47.8007275",
        "longitude": "13.0390161"
    },
    {
        "OBJECTID": "22",
        "osm_id": "604346447",
        "code": "2301",
        "fclass": "restaurant",
        "name": "Humboldt Stubn",
        "type": "Austrian cuisine",
        "rating": "4.5",
        "user_ratings_total": "1171",
        "latitude": "47.8007594",
        "longitude": "13.0392523"
    },
    {
        "OBJECTID": "135",
        "osm_id": "3519855793",
        "code": "2301",
        "fclass": "restaurant",
        "name": "Taste of India",
        "type": "Indian cuisine",
        "rating": "4.5",
        "user_ratings_total": "2081",
        "latitude": "47.800767",
        "longitude": "13.0403845"
    },
    {
        "OBJECTID": "158",
        "osm_id": "4632411084",
        "code": "2301",
        "fclass": "restaurant",
        "name": "Brasa Grill&Lounge",
        "type": "Argentinian cuisine",
        "rating": "4.4",
        "user_ratings_total": "229",
        "latitude": "47.8009277",
        "longitude": "13.0319426"
    },
    {
        "OBJECTID": "36",
        "osm_id": "797791750",
        "code": "2301",
        "fclass": "restaurant",
        "name": "M32",
        "type": "Austrian cuisine",
        "rating": "3.9",
        "user_ratings_total": "1616",
        "latitude": "47.8009301",
        "longitude": "13.0385762"
    },
    {
        "OBJECTID": "43",
        "osm_id": "814235321",
        "code": "2301",
        "fclass": "restaurant",
        "name": "Pizzeria il Sole",
        "type": "Italian cuisine",
        "rating": "3.1",
        "user_ratings_total": "469",
        "latitude": "47.8009437",
        "longitude": "13.0389339"
    },
    {
        "OBJECTID": "274",
        "osm_id": "12364577107",
        "code": "2301",
        "fclass": "restaurant",
        "name": "Amidaa Buddha",
        "type": "Japanese cuisine",
        "rating": "4.8",
        "user_ratings_total": "172",
        "latitude": "47.8012145",
        "longitude": "13.0455679"
    },
    {
        "OBJECTID": "153",
        "osm_id": "4440128491",
        "code": "2301",
        "fclass": "restaurant",
        "name": "Uncle Van",
        "type": "Vietnamese cuisine",
        "rating": "4.3",
        "user_ratings_total": "663",
        "latitude": "47.8013724",
        "longitude": "13.045829"
    },
    {
        "OBJECTID": "237",
        "osm_id": "7925653973",
        "code": "2301",
        "fclass": "restaurant",
        "name": "Steinterrasse",
        "type": "Austrian cuisine",
        "rating": "4.1",
        "user_ratings_total": "1043",
        "latitude": "47.8014339",
        "longitude": "13.0453311"
    },
    {
        "OBJECTID": "47",
        "osm_id": "814276664",
        "code": "2301",
        "fclass": "restaurant",
        "name": "Indian Palace",
        "type": "Indian cuisine",
        "rating": "4.4",
        "user_ratings_total": "1228",
        "latitude": "47.8014363",
        "longitude": "13.0406164"
    },
    {
        "OBJECTID": "260",
        "osm_id": "11251546916",
        "code": "2301",
        "fclass": "restaurant",
        "name": "JoJa",
        "type": "Austrian cuisine",
        "rating": "4.7",
        "user_ratings_total": "159",
        "latitude": "47.8014879",
        "longitude": "13.0403247"
    },
    {
        "OBJECTID": "98",
        "osm_id": "1936669262",
        "code": "2301",
        "fclass": "restaurant",
        "name": "Pizza Italy",
        "type": "Italian cuisine",
        "rating": "3.8",
        "user_ratings_total": "172",
        "latitude": "47.8015168",
        "longitude": "13.0247577"
    },
    {
        "OBJECTID": "73",
        "osm_id": "1423972391",
        "code": "2301",
        "fclass": "restaurant",
        "name": "Zum Noisternig",
        "type": "Austrian cuisine",
        "rating": "5",
        "user_ratings_total": "15",
        "latitude": "47.8015994",
        "longitude": "13.0166719"
    },
    {
        "OBJECTID": "61",
        "osm_id": "914383379",
        "code": "2301",
        "fclass": "restaurant",
        "name": "Zur Einkehr",
        "type": "Austrian cuisine",
        "rating": "4.5",
        "user_ratings_total": "527",
        "latitude": "47.8017542",
        "longitude": "13.0199088"
    },
    {
        "OBJECTID": "244",
        "osm_id": "9392678008",
        "code": "2301",
        "fclass": "restaurant",
        "name": "magazin:",
        "type": "Austrian cuisine",
        "rating": "4.7",
        "user_ratings_total": "365",
        "latitude": "47.8018421",
        "longitude": "13.0321475"
    },
    {
        "OBJECTID": "87",
        "osm_id": "1735713293",
        "code": "2301",
        "fclass": "restaurant",
        "name": "Bierheuriger",
        "type": "Austrian cuisine",
        "rating": "4.5",
        "user_ratings_total": "1910",
        "latitude": "47.8019282",
        "longitude": "13.0676441"
    },
    {
        "OBJECTID": "255",
        "osm_id": "9937862880",
        "code": "2301",
        "fclass": "restaurant",
        "name": "Di Renzi",
        "type": "Italian cuisine",
        "rating": "4.5",
        "user_ratings_total": "630",
        "latitude": "47.802048",
        "longitude": "13.0454479"
    },
    {
        "OBJECTID": "170",
        "osm_id": "5295742894",
        "code": "2301",
        "fclass": "restaurant",
        "name": "La Spada",
        "type": "Italian cuisine",
        "rating": "4.3",
        "user_ratings_total": "398",
        "latitude": "47.8020753",
        "longitude": "13.0447808"
    },
    {
        "OBJECTID": "217",
        "osm_id": "6732074985",
        "code": "2301",
        "fclass": "restaurant",
        "name": "Zirbelzimmer",
        "type": "Austrian cuisine",
        "rating": "4.5",
        "user_ratings_total": "33",
        "latitude": "47.8022028",
        "longitude": "13.0434143"
    },
    {
        "OBJECTID": "232",
        "osm_id": "7840810485",
        "code": "2301",
        "fclass": "restaurant",
        "name": "innergebirg",
        "type": "Austrian cuisine",
        "rating": "4.7",
        "user_ratings_total": "638",
        "latitude": "47.8023478",
        "longitude": "13.0457527"
    },
    {
        "OBJECTID": "249",
        "osm_id": "9569272349",
        "code": "2301",
        "fclass": "restaurant",
        "name": "Genussprojekt",
        "type": "Austrian cuisine",
        "rating": "4.4",
        "user_ratings_total": "396",
        "latitude": "47.802433",
        "longitude": "13.0381051"
    },
    {
        "OBJECTID": "6",
        "osm_id": "268056345",
        "code": "2301",
        "fclass": "restaurant",
        "name": "Gablerbräu",
        "type": "Austrian cuisine",
        "rating": "3.8",
        "user_ratings_total": "1601",
        "latitude": "47.8024488",
        "longitude": "13.0452625"
    },
    {
        "OBJECTID": "50",
        "osm_id": "818635313",
        "code": "2301",
        "fclass": "restaurant",
        "name": "Shiso",
        "type": "Japanese cuisine",
        "rating": "4.5",
        "user_ratings_total": "1002",
        "latitude": "47.8024702",
        "longitude": "13.066496"
    },
    {
        "OBJECTID": "100",
        "osm_id": "1947094386",
        "code": "2301",
        "fclass": "restaurant",
        "name": "L'Osteria",
        "type": "Italian cuisine",
        "rating": "3.9",
        "user_ratings_total": "8364",
        "latitude": "47.8025564",
        "longitude": "13.0449491"
    },
    {
        "OBJECTID": "57",
        "osm_id": "827247538",
        "code": "2301",
        "fclass": "restaurant",
        "name": "Johanneskeller",
        "type": "Austrian cuisine",
        "rating": "4.7",
        "user_ratings_total": "1092",
        "latitude": "47.8026938",
        "longitude": "13.0448619"
    },
    {
        "OBJECTID": "45",
        "osm_id": "814276654",
        "code": "2301",
        "fclass": "restaurant",
        "name": "Restaurant Stadtkrug",
        "type": "Austrian cuisine",
        "rating": "4.2",
        "user_ratings_total": "326",
        "latitude": "47.8027099",
        "longitude": "13.0461651"
    },
    {
        "OBJECTID": "32",
        "osm_id": "767837930",
        "code": "2301",
        "fclass": "restaurant",
        "name": "Zum fidelen Affen",
        "type": "Austrian cuisine",
        "rating": "4.4",
        "user_ratings_total": "1342",
        "latitude": "47.8028212",
        "longitude": "13.0454507"
    },
    {
        "OBJECTID": "5",
        "osm_id": "268056342",
        "code": "2301",
        "fclass": "restaurant",
        "name": "Das fidele Stüberl",
        "type": "Austrian cuisine",
        "rating": "4.5",
        "user_ratings_total": "87",
        "latitude": "47.8030581",
        "longitude": "13.0455691"
    },
    {
        "OBJECTID": "48",
        "osm_id": "814276669",
        "code": "2301",
        "fclass": "restaurant",
        "name": "Pizzeria Il Centro II",
        "type": "Italian cuisine",
        "rating": "4.1",
        "user_ratings_total": "933",
        "latitude": "47.8031988",
        "longitude": "13.0464536"
    },
    {
        "OBJECTID": "55",
        "osm_id": "827207079",
        "code": "2301",
        "fclass": "restaurant",
        "name": "Sabroson",
        "type": "Mexican cuisine",
        "rating": "3.3",
        "user_ratings_total": "572",
        "latitude": "47.8032614",
        "longitude": "13.0467189"
    },
    {
        "OBJECTID": "163",
        "osm_id": "4902534821",
        "code": "2301",
        "fclass": "restaurant",
        "name": "Stratmann Wine & Dine",
        "type": "Austrian cuisine",
        "rating": "4.2",
        "user_ratings_total": "240",
        "latitude": "47.8034174",
        "longitude": "13.0227594"
    },
    {
        "OBJECTID": "4",
        "osm_id": "268056341",
        "code": "2301",
        "fclass": "restaurant",
        "name": "Die Cabreras",
        "type": "Mexican cuisine",
        "rating": "4.4",
        "user_ratings_total": "1017",
        "latitude": "47.8034226",
        "longitude": "13.0450918"
    },
    {
        "OBJECTID": "63",
        "osm_id": "914383383",
        "code": "2301",
        "fclass": "restaurant",
        "name": "Kushi-Hachi",
        "type": "Japanese cuisine",
        "rating": "4.6",
        "user_ratings_total": "535",
        "latitude": "47.8035585",
        "longitude": "13.0180904"
    },
    {
        "OBJECTID": "3",
        "osm_id": "268056333",
        "code": "2301",
        "fclass": "restaurant",
        "name": "Casa Napoli",
        "type": "Italian cuisine",
        "rating": "4.2",
        "user_ratings_total": "281",
        "latitude": "47.8037154",
        "longitude": "13.0449926"
    },
    {
        "OBJECTID": "53",
        "osm_id": "825567280",
        "code": "2301",
        "fclass": "restaurant",
        "name": "Pizzeria&Co.",
        "type": "Italian cuisine",
        "rating": "2.3",
        "user_ratings_total": "239",
        "latitude": "47.803835",
        "longitude": "13.047417"
    },
    {
        "OBJECTID": "254",
        "osm_id": "9902674217",
        "code": "2301",
        "fclass": "restaurant",
        "name": "Hibiskus Koreas Küche",
        "type": "Korean cuisine",
        "rating": "4.3",
        "user_ratings_total": "1362",
        "latitude": "47.8038361",
        "longitude": "13.044722"
    },
    {
        "OBJECTID": "56",
        "osm_id": "827245212",
        "code": "2301",
        "fclass": "restaurant",
        "name": "Das Wein-Amt",
        "type": "Austrian cuisine",
        "rating": "4.9",
        "user_ratings_total": "91",
        "latitude": "47.8038632",
        "longitude": "13.0448883"
    },
    {
        "OBJECTID": "111",
        "osm_id": "2402220650",
        "code": "2301",
        "fclass": "restaurant",
        "name": "Goasn Wirtshaus",
        "type": "Austrian cuisine",
        "rating": "4.6",
        "user_ratings_total": "328",
        "latitude": "47.804007",
        "longitude": "13.1114263"
    },
    {
        "OBJECTID": "62",
        "osm_id": "914383380",
        "code": "2301",
        "fclass": "restaurant",
        "name": "Gasthof Drei Hasen",
        "type": "Austrian cuisine",
        "rating": "4.3",
        "user_ratings_total": "877",
        "latitude": "47.8040361",
        "longitude": "13.0176802"
    },
    {
        "OBJECTID": "259",
        "osm_id": "10998378564",
        "code": "2301",
        "fclass": "restaurant",
        "name": "Dolce Vita",
        "type": "Italian cuisine",
        "rating": "4.7",
        "user_ratings_total": "69",
        "latitude": "47.804133",
        "longitude": "13.072941"
    },
    {
        "OBJECTID": "154",
        "osm_id": "4464172590",
        "code": "2301",
        "fclass": "restaurant",
        "name": "Ludwig",
        "type": "American fast food",
        "rating": "4.3",
        "user_ratings_total": "2443",
        "latitude": "47.804134",
        "longitude": "13.0467471"
    },
    {
        "OBJECTID": "218",
        "osm_id": "6732247390",
        "code": "2301",
        "fclass": "restaurant",
        "name": "The Glass Garden",
        "type": "Austrian cuisine",
        "rating": "4.8",
        "user_ratings_total": "179",
        "latitude": "47.8042325",
        "longitude": "13.0357184"
    },
    {
        "OBJECTID": "28",
        "osm_id": "694146354",
        "code": "2301",
        "fclass": "restaurant",
        "name": "Gasthof Alter Fuchs",
        "type": "Austrian cuisine",
        "rating": "4.3",
        "user_ratings_total": "2484",
        "latitude": "47.8042694",
        "longitude": "13.0479832"
    },
    {
        "OBJECTID": "138",
        "osm_id": "3618343209",
        "code": "2301",
        "fclass": "restaurant",
        "name": "Bio Bistro Spicy Spices",
        "type": "Austrian cuisine",
        "rating": "4.5",
        "user_ratings_total": "456",
        "latitude": "47.8043632",
        "longitude": "13.0483467"
    },
    {
        "OBJECTID": "128",
        "osm_id": "3146383447",
        "code": "2301",
        "fclass": "restaurant",
        "name": "Pommes Boutique",
        "type": "American fast food",
        "rating": "4",
        "user_ratings_total": "519",
        "latitude": "47.8047688",
        "longitude": "13.0438919"
    },
    {
        "OBJECTID": "139",
        "osm_id": "3731419494",
        "code": "2301",
        "fclass": "restaurant",
        "name": "Lazarte Latin American Food",
        "type": "Argentinian cuisine",
        "rating": "4.6",
        "user_ratings_total": "713",
        "latitude": "47.8048183",
        "longitude": "13.0482881"
    },
    {
        "OBJECTID": "54",
        "osm_id": "825804580",
        "code": "2301",
        "fclass": "restaurant",
        "name": "Mr Wen",
        "type": "Chinese cuisine",
        "rating": "4.2",
        "user_ratings_total": "893",
        "latitude": "47.8049421",
        "longitude": "13.0437836"
    },
    {
        "OBJECTID": "144",
        "osm_id": "4102556409",
        "code": "2301",
        "fclass": "restaurant",
        "name": "Goodmans",
        "type": "Austrian cuisine",
        "rating": "4.5",
        "user_ratings_total": "739",
        "latitude": "47.8050596",
        "longitude": "13.050871"
    },
    {
        "OBJECTID": "109",
        "osm_id": "2311421708",
        "code": "2301",
        "fclass": "restaurant",
        "name": "Restaurant 28",
        "type": "Austrian cuisine",
        "rating": "4.7",
        "user_ratings_total": "68",
        "latitude": "47.8053738",
        "longitude": "13.0223512"
    },
    {
        "OBJECTID": "239",
        "osm_id": "8038378313",
        "code": "2301",
        "fclass": "restaurant",
        "name": "All'Angolo",
        "type": "Italian cuisine",
        "rating": "4.3",
        "user_ratings_total": "434",
        "latitude": "47.805573",
        "longitude": "13.0492165"
    },
    {
        "OBJECTID": "156",
        "osm_id": "4548929269",
        "code": "2301",
        "fclass": "restaurant",
        "name": "Organic Pizza",
        "type": "Italian cuisine",
        "rating": "4.6",
        "user_ratings_total": "904",
        "latitude": "47.8056181",
        "longitude": "13.0485856"
    },
    {
        "OBJECTID": "148",
        "osm_id": "4233194992",
        "code": "2301",
        "fclass": "restaurant",
        "name": "Bistro de Marquez",
        "type": "Mexican cuisine",
        "rating": "4.7",
        "user_ratings_total": "397",
        "latitude": "47.8056301",
        "longitude": "13.0449896"
    },
    {
        "OBJECTID": "204",
        "osm_id": "6052021793",
        "code": "2301",
        "fclass": "restaurant",
        "name": "Sonnenblume",
        "type": "Chinese cuisine",
        "rating": "4.7",
        "user_ratings_total": "91",
        "latitude": "47.805752",
        "longitude": "13.052241"
    },
    {
        "OBJECTID": "208",
        "osm_id": "6291296637",
        "code": "2301",
        "fclass": "restaurant",
        "name": "Yiyami Asia Restaurant",
        "type": "Chinese cuisine",
        "rating": "4.6",
        "user_ratings_total": "413",
        "latitude": "47.8057826",
        "longitude": "13.04836"
    },
    {
        "OBJECTID": "104",
        "osm_id": "2143163337",
        "code": "2301",
        "fclass": "restaurant",
        "name": "Bärenwirt",
        "type": "Austrian cuisine",
        "rating": "4.5",
        "user_ratings_total": "5256",
        "latitude": "47.805949",
        "longitude": "13.035837"
    },
    {
        "OBJECTID": "210",
        "osm_id": "6436201785",
        "code": "2301",
        "fclass": "restaurant",
        "name": "Istra kroatisches Restaurant",
        "type": "Croatian cuisine",
        "rating": "4.6",
        "user_ratings_total": "753",
        "latitude": "47.8060395",
        "longitude": "13.0471012"
    },
    {
        "OBJECTID": "78",
        "osm_id": "1448000813",
        "code": "2301",
        "fclass": "restaurant",
        "name": "Kastners Schenke",
        "type": "Austrian cuisine",
        "rating": "4.6",
        "user_ratings_total": "988",
        "latitude": "47.806245",
        "longitude": "13.0535062"
    },
    {
        "OBJECTID": "58",
        "osm_id": "827320929",
        "code": "2301",
        "fclass": "restaurant",
        "name": "Shakespeare",
        "type": "Austrian cuisine",
        "rating": "4.2",
        "user_ratings_total": "261",
        "latitude": "47.8063498",
        "longitude": "13.0433032"
    },
    {
        "OBJECTID": "150",
        "osm_id": "4330886300",
        "code": "2301",
        "fclass": "restaurant",
        "name": "Ristorant Pasta e Vino",
        "type": "Italian cuisine",
        "rating": "4.3",
        "user_ratings_total": "1324",
        "latitude": "47.8064101",
        "longitude": "13.0468043"
    },
    {
        "OBJECTID": "167",
        "osm_id": "5149527697",
        "code": "2301",
        "fclass": "restaurant",
        "name": "La Cantina",
        "type": "Mexican cuisine",
        "rating": "4.8",
        "user_ratings_total": "89",
        "latitude": "47.8065922",
        "longitude": "13.0359733"
    },
    {
        "OBJECTID": "75",
        "osm_id": "1447673331",
        "code": "2301",
        "fclass": "restaurant",
        "name": "Hauser-Stuben",
        "type": "Austrian cuisine",
        "rating": "4.7",
        "user_ratings_total": "1621",
        "latitude": "47.806612",
        "longitude": "13.0268712"
    },
    {
        "OBJECTID": "261",
        "osm_id": "11383547037",
        "code": "2301",
        "fclass": "restaurant",
        "name": "La Esquina Cevichera",
        "type": "Peruvian cuisine",
        "rating": "4.7",
        "user_ratings_total": "76",
        "latitude": "47.806621",
        "longitude": "13.0349073"
    },
    {
        "OBJECTID": "25",
        "osm_id": "631938725",
        "code": "2301",
        "fclass": "restaurant",
        "name": "Krimpelstätter",
        "type": "Austrian cuisine",
        "rating": "4.6",
        "user_ratings_total": "1532",
        "latitude": "47.8066504",
        "longitude": "13.034364"
    },
    {
        "OBJECTID": "84",
        "osm_id": "1672069080",
        "code": "2301",
        "fclass": "restaurant",
        "name": "Esszimmer",
        "type": "Austrian cuisine",
        "rating": "4.8",
        "user_ratings_total": "372",
        "latitude": "47.8067007",
        "longitude": "13.0342188"
    },
    {
        "OBJECTID": "146",
        "osm_id": "4178278391",
        "code": "2301",
        "fclass": "restaurant",
        "name": "Original Bosna",
        "type": "Austrian cuisine",
        "rating": "4.3",
        "user_ratings_total": "157",
        "latitude": "47.8068365",
        "longitude": "13.042532"
    },
    {
        "OBJECTID": "219",
        "osm_id": "6793934071",
        "code": "2301",
        "fclass": "restaurant",
        "name": "Die Weisse",
        "type": "Austrian cuisine",
        "rating": "4.5",
        "user_ratings_total": "3427",
        "latitude": "47.806898",
        "longitude": "13.051725"
    },
    {
        "OBJECTID": "231",
        "osm_id": "7769775001",
        "code": "2301",
        "fclass": "restaurant",
        "name": "Pizzeria al Taglio JOLLY",
        "type": "Italian cuisine",
        "rating": "4.1",
        "user_ratings_total": "96",
        "latitude": "47.807029",
        "longitude": "13.0455723"
    },
    {
        "OBJECTID": "116",
        "osm_id": "2522130511",
        "code": "2301",
        "fclass": "restaurant",
        "name": "Antichi Sapori",
        "type": "Italian cuisine",
        "rating": "4.7",
        "user_ratings_total": "194",
        "latitude": "47.8070318",
        "longitude": "13.0508548"
    },
    {
        "OBJECTID": "253",
        "osm_id": "9844541837",
        "code": "2301",
        "fclass": "restaurant",
        "name": "Gyros Hermanos",
        "type": "Greek cuisine",
        "rating": "4.6",
        "user_ratings_total": "47",
        "latitude": "47.807156",
        "longitude": "13.0105771"
    },
    {
        "OBJECTID": "94",
        "osm_id": "1836868048",
        "code": "2301",
        "fclass": "restaurant",
        "name": "Pescheria Backi",
        "type": "Italian cuisine",
        "rating": "4.3",
        "user_ratings_total": "381",
        "latitude": "47.8071685",
        "longitude": "13.0458151"
    },
    {
        "OBJECTID": "113",
        "osm_id": "2463152507",
        "code": "2301",
        "fclass": "restaurant",
        "name": "Taj Mahal",
        "type": "Indian cuisine",
        "rating": "4.7",
        "user_ratings_total": "5126",
        "latitude": "47.8071869",
        "longitude": "13.0511027"
    },
    {
        "OBJECTID": "252",
        "osm_id": "9844541836",
        "code": "2301",
        "fclass": "restaurant",
        "name": "Little Thai",
        "type": "Thai cuisine",
        "rating": "5",
        "user_ratings_total": "8",
        "latitude": "47.8071893",
        "longitude": "13.0107315"
    },
    {
        "OBJECTID": "10",
        "osm_id": "446007242",
        "code": "2301",
        "fclass": "restaurant",
        "name": "Pan Asia",
        "type": "Chinese cuisine",
        "rating": "4.6",
        "user_ratings_total": "466",
        "latitude": "47.8072481",
        "longitude": "13.0014249"
    },
    {
        "OBJECTID": "51",
        "osm_id": "824260347",
        "code": "2301",
        "fclass": "restaurant",
        "name": "Ping Pong Poke",
        "type": "Hawaiian cuisine",
        "rating": "4.6",
        "user_ratings_total": "315",
        "latitude": "47.807298",
        "longitude": "13.0433002"
    },
    {
        "OBJECTID": "206",
        "osm_id": "6187718443",
        "code": "2301",
        "fclass": "restaurant",
        "name": "Schachner & Pasta",
        "type": "Italian cuisine",
        "rating": "4.6",
        "user_ratings_total": "7",
        "latitude": "47.8073849",
        "longitude": "13.010805"
    },
    {
        "OBJECTID": "169",
        "osm_id": "5242955221",
        "code": "2301",
        "fclass": "restaurant",
        "name": "my Indigo Kongresshaus",
        "type": "African cuisine",
        "rating": "4.3",
        "user_ratings_total": "1035",
        "latitude": "47.8074504",
        "longitude": "13.0423013"
    },
    {
        "OBJECTID": "272",
        "osm_id": "12160605695",
        "code": "2301",
        "fclass": "restaurant",
        "name": "D'ouro - Soul Food",
        "type": "Portuguese cuisine",
        "rating": "4.9",
        "user_ratings_total": "639",
        "latitude": "47.8075578",
        "longitude": "13.0426"
    },
    {
        "OBJECTID": "201",
        "osm_id": "5899102564",
        "code": "2301",
        "fclass": "restaurant",
        "name": "IMLAUER Sky - Bar & Restaurant",
        "type": "Austrian cuisine",
        "rating": "4.6",
        "user_ratings_total": "2669",
        "latitude": "47.8076013",
        "longitude": "13.0418632"
    },
    {
        "OBJECTID": "76",
        "osm_id": "1447945883",
        "code": "2301",
        "fclass": "restaurant",
        "name": "Zaffran",
        "type": "Indian cuisine",
        "rating": "4.6",
        "user_ratings_total": "1237",
        "latitude": "47.8077214",
        "longitude": "13.0553286"
    },
    {
        "OBJECTID": "198",
        "osm_id": "5807411453",
        "code": "2301",
        "fclass": "restaurant",
        "name": "Il Corallo",
        "type": "Italian cuisine",
        "rating": "4.5",
        "user_ratings_total": "460",
        "latitude": "47.8077265",
        "longitude": "13.0428977"
    },
    {
        "OBJECTID": "186",
        "osm_id": "5381629146",
        "code": "2301",
        "fclass": "restaurant",
        "name": "Pitterkeller",
        "type": "Austrian cuisine",
        "rating": "4.4",
        "user_ratings_total": "984",
        "latitude": "47.8077285",
        "longitude": "13.0418157"
    },
    {
        "OBJECTID": "173",
        "osm_id": "5317112087",
        "code": "2301",
        "fclass": "restaurant",
        "name": "Zwergerlwirt",
        "type": "Austrian cuisine",
        "rating": "4.6",
        "user_ratings_total": "148",
        "latitude": "47.808208",
        "longitude": "13.0163507"
    },
    {
        "OBJECTID": "191",
        "osm_id": "5520511926",
        "code": "2301",
        "fclass": "restaurant",
        "name": "Asia Kitchen",
        "type": "Chinese cuisine",
        "rating": "4.3",
        "user_ratings_total": "1397",
        "latitude": "47.8083385",
        "longitude": "13.041171"
    },
    {
        "OBJECTID": "159",
        "osm_id": "4716154889",
        "code": "2301",
        "fclass": "restaurant",
        "name": "Stobl Stüberl",
        "type": "Austrian cuisine",
        "rating": "4.4",
        "user_ratings_total": "823",
        "latitude": "47.8085812",
        "longitude": "13.0411949"
    },
    {
        "OBJECTID": "225",
        "osm_id": "7167826919",
        "code": "2301",
        "fclass": "restaurant",
        "name": "my Indigo Mooncity",
        "type": "Chinese cuisine",
        "rating": "4.4",
        "user_ratings_total": "293",
        "latitude": "47.8087577",
        "longitude": "13.0564048"
    },
    {
        "OBJECTID": "82",
        "osm_id": "1631504868",
        "code": "2301",
        "fclass": "restaurant",
        "name": "Akropolis",
        "type": "Greek cuisine",
        "rating": "4.4",
        "user_ratings_total": "1402",
        "latitude": "47.808861",
        "longitude": "13.064699"
    },
    {
        "OBJECTID": "269",
        "osm_id": "12042291441",
        "code": "2301",
        "fclass": "restaurant",
        "name": "Braurestaurant IMLAUER",
        "type": "Austrian cuisine",
        "rating": "4.5",
        "user_ratings_total": "3566",
        "latitude": "47.8089826",
        "longitude": "13.0420668"
    },
    {
        "OBJECTID": "220",
        "osm_id": "6992137852",
        "code": "2301",
        "fclass": "restaurant",
        "name": "Pizzeria Sempre",
        "type": "Italian cuisine",
        "rating": "4",
        "user_ratings_total": "1029",
        "latitude": "47.8092764",
        "longitude": "13.0304057"
    },
    {
        "OBJECTID": "209",
        "osm_id": "6431659169",
        "code": "2301",
        "fclass": "restaurant",
        "name": "Ichi Go Ichi E",
        "type": "Japanese cuisine",
        "rating": "4.6",
        "user_ratings_total": "1370",
        "latitude": "47.8093386",
        "longitude": "13.0573104"
    },
    {
        "OBJECTID": "125",
        "osm_id": "2949428521",
        "code": "2301",
        "fclass": "restaurant",
        "name": "Trumerei",
        "type": "Austrian cuisine",
        "rating": "4.4",
        "user_ratings_total": "425",
        "latitude": "47.8093643",
        "longitude": "13.030839"
    },
    {
        "OBJECTID": "124",
        "osm_id": "2908091801",
        "code": "2301",
        "fclass": "restaurant",
        "name": "Löwenstern",
        "type": "Austrian cuisine",
        "rating": "3.6",
        "user_ratings_total": "46",
        "latitude": "47.8094277",
        "longitude": "13.0723836"
    },
    {
        "OBJECTID": "161",
        "osm_id": "4791943636",
        "code": "2301",
        "fclass": "restaurant",
        "name": "Viale",
        "type": "Italian cuisine",
        "rating": "4.7",
        "user_ratings_total": "405",
        "latitude": "47.80972",
        "longitude": "13.01026"
    },
    {
        "OBJECTID": "140",
        "osm_id": "3742827730",
        "code": "2301",
        "fclass": "restaurant",
        "name": "leichtsinn",
        "type": "Austrian cuisine",
        "rating": "4.8",
        "user_ratings_total": "514",
        "latitude": "47.8098726",
        "longitude": "13.0415922"
    },
    {
        "OBJECTID": "123",
        "osm_id": "2902474040",
        "code": "2301",
        "fclass": "restaurant",
        "name": "FUXN",
        "type": "Austrian cuisine",
        "rating": "4.5",
        "user_ratings_total": "2981",
        "latitude": "47.8098975",
        "longitude": "13.0551785"
    },
    {
        "OBJECTID": "181",
        "osm_id": "5345095683",
        "code": "2301",
        "fclass": "restaurant",
        "name": "Happy Asia",
        "type": "Chinese cuisine",
        "rating": "3.1",
        "user_ratings_total": "415",
        "latitude": "47.8100702",
        "longitude": "13.0426139"
    },
    {
        "OBJECTID": "132",
        "osm_id": "3412620545",
        "code": "2301",
        "fclass": "restaurant",
        "name": "Umai Asian Cuisine",
        "type": "Chinese cuisine",
        "rating": "4.3",
        "user_ratings_total": "288",
        "latitude": "47.8100808",
        "longitude": "13.0649554"
    },
    {
        "OBJECTID": "95",
        "osm_id": "1837956257",
        "code": "2301",
        "fclass": "restaurant",
        "name": "Way to India",
        "type": "Indian cuisine",
        "rating": "4",
        "user_ratings_total": "633",
        "latitude": "47.8100923",
        "longitude": "13.0426632"
    },
    {
        "OBJECTID": "180",
        "osm_id": "5345095681",
        "code": "2301",
        "fclass": "restaurant",
        "name": "Shaker Restaurant",
        "type": "Austrian cuisine",
        "rating": "4.5",
        "user_ratings_total": "320",
        "latitude": "47.8102433",
        "longitude": "13.0428914"
    },
    {
        "OBJECTID": "270",
        "osm_id": "12049233597",
        "code": "2301",
        "fclass": "restaurant",
        "name": "Royal Indian & Italian Restaurants",
        "type": "Indian cuisine",
        "rating": "4.8",
        "user_ratings_total": "179",
        "latitude": "47.8103301",
        "longitude": "13.042014"
    },
    {
        "OBJECTID": "77",
        "osm_id": "1447945886",
        "code": "2301",
        "fclass": "restaurant",
        "name": "Bangkok",
        "type": "Thai cuisine",
        "rating": "4.5",
        "user_ratings_total": "947",
        "latitude": "47.8103708",
        "longitude": "13.050379"
    },
    {
        "OBJECTID": "166",
        "osm_id": "5019788327",
        "code": "2301",
        "fclass": "restaurant",
        "name": "Zu Den Sieben Schwaben",
        "type": "Austrian cuisine",
        "rating": "4.5",
        "user_ratings_total": "1078",
        "latitude": "47.8107558",
        "longitude": "13.0657042"
    },
    {
        "OBJECTID": "172",
        "osm_id": "5317112086",
        "code": "2301",
        "fclass": "restaurant",
        "name": "Surya",
        "type": "Indian cuisine",
        "rating": "4.6",
        "user_ratings_total": "459",
        "latitude": "47.8108343",
        "longitude": "13.0077686"
    },
    {
        "OBJECTID": "229",
        "osm_id": "7562039628",
        "code": "2301",
        "fclass": "restaurant",
        "name": "Maharaja Indian Restaurant",
        "type": "Indian cuisine",
        "rating": "4",
        "user_ratings_total": "770",
        "latitude": "47.8110552",
        "longitude": "13.0336584"
    },
    {
        "OBJECTID": "126",
        "osm_id": "2981766926",
        "code": "2301",
        "fclass": "restaurant",
        "name": "Cosmic Pizza",
        "type": "Italian cuisine",
        "rating": "4.9",
        "user_ratings_total": "120",
        "latitude": "47.8110621",
        "longitude": "13.0391679"
    },
    {
        "OBJECTID": "179",
        "osm_id": "5344766736",
        "code": "2301",
        "fclass": "restaurant",
        "name": "Sofra",
        "type": "Turkish cuisine",
        "rating": "4.1",
        "user_ratings_total": "503",
        "latitude": "47.8113001",
        "longitude": "13.0432628"
    },
    {
        "OBJECTID": "190",
        "osm_id": "5512280078",
        "code": "2301",
        "fclass": "restaurant",
        "name": "Tokyo Bay",
        "type": "Japanese cuisine",
        "rating": "4.4",
        "user_ratings_total": "681",
        "latitude": "47.8114093",
        "longitude": "13.030647"
    },
    {
        "OBJECTID": "27",
        "osm_id": "676197145",
        "code": "2301",
        "fclass": "restaurant",
        "name": "Pizzeria Da Ciro",
        "type": "Italian cuisine",
        "rating": "4.6",
        "user_ratings_total": "706",
        "latitude": "47.8114755",
        "longitude": "13.0596935"
    },
    {
        "OBJECTID": "174",
        "osm_id": "5324779743",
        "code": "2301",
        "fclass": "restaurant",
        "name": "Wirtin im Daghofer's",
        "type": "Austrian cuisine",
        "rating": "4.7",
        "user_ratings_total": "544",
        "latitude": "47.8116758",
        "longitude": "13.0277658"
    },
    {
        "OBJECTID": "175",
        "osm_id": "5324779751",
        "code": "2301",
        "fclass": "restaurant",
        "name": "Lehener Stüberl",
        "type": "Austrian cuisine",
        "rating": "4.5",
        "user_ratings_total": "22",
        "latitude": "47.8117514",
        "longitude": "13.0259092"
    },
    {
        "OBJECTID": "240",
        "osm_id": "8119523604",
        "code": "2301",
        "fclass": "restaurant",
        "name": "Hira Bistro",
        "type": "Turkish cuisine",
        "rating": "5",
        "user_ratings_total": "3",
        "latitude": "47.8117698",
        "longitude": "13.0259322"
    },
    {
        "OBJECTID": "194",
        "osm_id": "5676121021",
        "code": "2301",
        "fclass": "restaurant",
        "name": "Mr. Wen",
        "type": "Chinese cuisine",
        "rating": "4.3",
        "user_ratings_total": "739",
        "latitude": "47.8118828",
        "longitude": "13.0442677"
    },
    {
        "OBJECTID": "246",
        "osm_id": "9487926498",
        "code": "2301",
        "fclass": "restaurant",
        "name": "Pokhara",
        "type": "Nepalese cuisine",
        "rating": "3.1",
        "user_ratings_total": "28",
        "latitude": "47.8130441",
        "longitude": "13.0262899"
    },
    {
        "OBJECTID": "250",
        "osm_id": "9759658737",
        "code": "2301",
        "fclass": "restaurant",
        "name": "Tida Thai Imbiss",
        "type": "Thai cuisine",
        "rating": "4.6",
        "user_ratings_total": "303",
        "latitude": "47.8131444",
        "longitude": "13.0418286"
    },
    {
        "OBJECTID": "235",
        "osm_id": "7888151586",
        "code": "2301",
        "fclass": "restaurant",
        "name": "Lievitamente",
        "type": "Italian cuisine",
        "rating": "4.7",
        "user_ratings_total": "619",
        "latitude": "47.8132663",
        "longitude": "13.0418368"
    },
    {
        "OBJECTID": "89",
        "osm_id": "1748388255",
        "code": "2301",
        "fclass": "restaurant",
        "name": "Aydin Kebap",
        "type": "Turkish cuisine",
        "rating": "4.2",
        "user_ratings_total": "168",
        "latitude": "47.8135956",
        "longitude": "13.0432229"
    },
    {
        "OBJECTID": "187",
        "osm_id": "5381793433",
        "code": "2301",
        "fclass": "restaurant",
        "name": "Dino's Essbar",
        "type": "Italian cuisine",
        "rating": "4.4",
        "user_ratings_total": "130",
        "latitude": "47.8137048",
        "longitude": "13.0536736"
    },
    {
        "OBJECTID": "223",
        "osm_id": "7053015273",
        "code": "2301",
        "fclass": "restaurant",
        "name": "Akakiko",
        "type": "Chinese cuisine",
        "rating": "4.1",
        "user_ratings_total": "1342",
        "latitude": "47.8139381",
        "longitude": "13.0442658"
    },
    {
        "OBJECTID": "119",
        "osm_id": "2589355326",
        "code": "2301",
        "fclass": "restaurant",
        "name": "Il Padrino",
        "type": "Italian cuisine",
        "rating": "4.6",
        "user_ratings_total": "662",
        "latitude": "47.8141636",
        "longitude": "13.0387535"
    },
    {
        "OBJECTID": "203",
        "osm_id": "6046404481",
        "code": "2301",
        "fclass": "restaurant",
        "name": "Wang Cooking",
        "type": "Chinese cuisine",
        "rating": "3.9",
        "user_ratings_total": "187",
        "latitude": "47.8143901",
        "longitude": "13.0445675"
    },
    {
        "OBJECTID": "182",
        "osm_id": "5345095700",
        "code": "2301",
        "fclass": "restaurant",
        "name": "Coco",
        "type": "Sri Lankan cuisine",
        "rating": "4.6",
        "user_ratings_total": "177",
        "latitude": "47.8145766",
        "longitude": "13.0453859"
    },
    {
        "OBJECTID": "137",
        "osm_id": "3603594890",
        "code": "2301",
        "fclass": "restaurant",
        "name": "Glorious Bastards",
        "type": "Austrian cuisine",
        "rating": "3.9",
        "user_ratings_total": "1549",
        "latitude": "47.814996",
        "longitude": "13.0080113"
    },
    {
        "OBJECTID": "91",
        "osm_id": "1760308420",
        "code": "2301",
        "fclass": "restaurant",
        "name": "Pizza La Cata",
        "type": "Italian cuisine",
        "rating": "3",
        "user_ratings_total": "132",
        "latitude": "47.8150739",
        "longitude": "13.053837"
    },
    {
        "OBJECTID": "112",
        "osm_id": "2427797043",
        "code": "2301",
        "fclass": "restaurant",
        "name": "Interspar Restaurant",
        "type": "Austrian cuisine",
        "rating": "4.2",
        "user_ratings_total": "1568",
        "latitude": "47.8152835",
        "longitude": "13.0071624"
    },
    {
        "OBJECTID": "243",
        "osm_id": "9392677997",
        "code": "2301",
        "fclass": "restaurant",
        "name": "The Naked Indigo",
        "type": "Austrian cuisine",
        "rating": "3.9",
        "user_ratings_total": "249",
        "latitude": "47.8154181",
        "longitude": "13.0077732"
    },
    {
        "OBJECTID": "70",
        "osm_id": "1344274295",
        "code": "2301",
        "fclass": "restaurant",
        "name": "Gnigler Stüberl",
        "type": "Austrian cuisine",
        "rating": "4.6",
        "user_ratings_total": "121",
        "latitude": "47.8154226",
        "longitude": "13.0699397"
    },
    {
        "OBJECTID": "267",
        "osm_id": "11850694892",
        "code": "2301",
        "fclass": "restaurant",
        "name": "Pizza Mozart",
        "type": "Italian cuisine",
        "rating": "4",
        "user_ratings_total": "37",
        "latitude": "47.8154343",
        "longitude": "13.0324665"
    },
    {
        "OBJECTID": "114",
        "osm_id": "2472283898",
        "code": "2301",
        "fclass": "restaurant",
        "name": "Pizzaria Rangie",
        "type": "Italian cuisine",
        "rating": "4.4",
        "user_ratings_total": "482",
        "latitude": "47.815822",
        "longitude": "13.0671087"
    },
    {
        "OBJECTID": "177",
        "osm_id": "5332145340",
        "code": "2301",
        "fclass": "restaurant",
        "name": "Didi licious",
        "type": "Austrian cuisine",
        "rating": "4.5",
        "user_ratings_total": "794",
        "latitude": "47.8158223",
        "longitude": "13.0063289"
    },
    {
        "OBJECTID": "152",
        "osm_id": "4379284195",
        "code": "2301",
        "fclass": "restaurant",
        "name": "yaoyao",
        "type": "Chinese cuisine",
        "rating": "4.6",
        "user_ratings_total": "1750",
        "latitude": "47.8158333",
        "longitude": "13.0088889"
    },
    {
        "OBJECTID": "60",
        "osm_id": "884228307",
        "code": "2301",
        "fclass": "restaurant",
        "name": "Turnerwirt",
        "type": "Austrian cuisine",
        "rating": "4",
        "user_ratings_total": "1346",
        "latitude": "47.8158817",
        "longitude": "13.0701665"
    },
    {
        "OBJECTID": "79",
        "osm_id": "1475337243",
        "code": "2301",
        "fclass": "restaurant",
        "name": "Country Saloon",
        "type": "American fast food",
        "rating": "4.6",
        "user_ratings_total": "588",
        "latitude": "47.8159934",
        "longitude": "13.0666206"
    },
    {
        "OBJECTID": "90",
        "osm_id": "1760308414",
        "code": "2301",
        "fclass": "restaurant",
        "name": "Rong Yao",
        "type": "Chinese cuisine",
        "rating": "4.3",
        "user_ratings_total": "438",
        "latitude": "47.8160533",
        "longitude": "13.0611282"
    },
    {
        "OBJECTID": "245",
        "osm_id": "9392678010",
        "code": "2301",
        "fclass": "restaurant",
        "name": "bioba",
        "type": "Chinese cuisine",
        "rating": "3.7",
        "user_ratings_total": "29",
        "latitude": "47.8160822",
        "longitude": "13.0088662"
    },
    {
        "OBJECTID": "277",
        "osm_id": "12420386262",
        "code": "2301",
        "fclass": "restaurant",
        "name": "Pizza Classic",
        "type": "Italian cuisine",
        "rating": "4",
        "user_ratings_total": "128",
        "latitude": "47.8170365",
        "longitude": "13.040503"
    },
    {
        "OBJECTID": "222",
        "osm_id": "7033613686",
        "code": "2301",
        "fclass": "restaurant",
        "name": "Uncle Falafel",
        "type": "Arabic cuisine",
        "rating": "4.5",
        "user_ratings_total": "669",
        "latitude": "47.8174462",
        "longitude": "13.0440934"
    },
    {
        "OBJECTID": "130",
        "osm_id": "3181150761",
        "code": "2301",
        "fclass": "restaurant",
        "name": "Goldener Stern",
        "type": "Austrian cuisine",
        "rating": "4",
        "user_ratings_total": "185",
        "latitude": "47.8175238",
        "longitude": "13.0264669"
    },
    {
        "OBJECTID": "268",
        "osm_id": "12042291440",
        "code": "2301",
        "fclass": "restaurant",
        "name": "Restaurant Grill Sućeska",
        "type": "Croatian cuisine",
        "rating": "4.8",
        "user_ratings_total": "420",
        "latitude": "47.8185708",
        "longitude": "13.0408718"
    },
    {
        "OBJECTID": "80",
        "osm_id": "1605470323",
        "code": "2301",
        "fclass": "restaurant",
        "name": "Gärtnerwirt",
        "type": "Austrian cuisine",
        "rating": "4.6",
        "user_ratings_total": "498",
        "latitude": "47.8189537",
        "longitude": "13.0405849"
    },
    {
        "OBJECTID": "188",
        "osm_id": "5381793441",
        "code": "2301",
        "fclass": "restaurant",
        "name": "Asia Palace",
        "type": "Chinese cuisine",
        "rating": "4.2",
        "user_ratings_total": "381",
        "latitude": "47.8194904",
        "longitude": "13.0529207"
    },
    {
        "OBJECTID": "99",
        "osm_id": "1941632603",
        "code": "2301",
        "fclass": "restaurant",
        "name": "Gasthof Auerhahn",
        "type": "Austrian cuisine",
        "rating": "4.7",
        "user_ratings_total": "381",
        "latitude": "47.8205449",
        "longitude": "13.0484942"
    },
    {
        "OBJECTID": "121",
        "osm_id": "2701887815",
        "code": "2301",
        "fclass": "restaurant",
        "name": "MM Pizza",
        "type": "Italian cuisine",
        "rating": "3.3",
        "user_ratings_total": "238",
        "latitude": "47.8210266",
        "longitude": "13.0240311"
    },
    {
        "OBJECTID": "143",
        "osm_id": "4018135280",
        "code": "2301",
        "fclass": "restaurant",
        "name": "Sa's Thai-Küche",
        "type": "Thai cuisine",
        "rating": "4.8",
        "user_ratings_total": "380",
        "latitude": "47.8213184",
        "longitude": "13.0445568"
    },
    {
        "OBJECTID": "64",
        "osm_id": "914747672",
        "code": "2301",
        "fclass": "restaurant",
        "name": "Wah Hing",
        "type": "Chinese cuisine",
        "rating": "4.5",
        "user_ratings_total": "574",
        "latitude": "47.822597",
        "longitude": "13.02012"
    },
    {
        "OBJECTID": "263",
        "osm_id": "11508606974",
        "code": "2301",
        "fclass": "restaurant",
        "name": "M BISTRO",
        "type": "Austrian cuisine",
        "rating": "4",
        "user_ratings_total": "1",
        "latitude": "47.8228669",
        "longitude": "13.0410335"
    },
    {
        "OBJECTID": "103",
        "osm_id": "2114997119",
        "code": "2301",
        "fclass": "restaurant",
        "name": "Gasthof Langwied",
        "type": "Austrian cuisine",
        "rating": "4.4",
        "user_ratings_total": "124",
        "latitude": "47.8230989",
        "longitude": "13.078243"
    },
    {
        "OBJECTID": "23",
        "osm_id": "621122331",
        "code": "2301",
        "fclass": "restaurant",
        "name": "de Cesare",
        "type": "Italian cuisine",
        "rating": "4.4",
        "user_ratings_total": "184",
        "latitude": "47.8237115",
        "longitude": "13.038767"
    },
    {
        "OBJECTID": "257",
        "osm_id": "10822915502",
        "code": "2301",
        "fclass": "restaurant",
        "name": "Restaurant Brandstätter",
        "type": "Austrian cuisine",
        "rating": "4.7",
        "user_ratings_total": "136",
        "latitude": "47.8266551",
        "longitude": "13.0100944"
    },
    {
        "OBJECTID": "83",
        "osm_id": "1669451905",
        "code": "2301",
        "fclass": "restaurant",
        "name": "Pizzeria D&S",
        "type": "Italian cuisine",
        "rating": "4.5",
        "user_ratings_total": "385",
        "latitude": "47.8276046",
        "longitude": "13.0662356"
    },
    {
        "OBJECTID": "273",
        "osm_id": "12331369916",
        "code": "2301",
        "fclass": "restaurant",
        "name": "s'Wintersteller",
        "type": "Austrian cuisine",
        "rating": "4.8",
        "user_ratings_total": "346",
        "latitude": "47.8287304",
        "longitude": "13.0059187"
    },
    {
        "OBJECTID": "227",
        "osm_id": "7212405173",
        "code": "2301",
        "fclass": "restaurant",
        "name": "Charly's Auwirt",
        "type": "Austrian cuisine",
        "rating": "4.6",
        "user_ratings_total": "178",
        "latitude": "47.8288543",
        "longitude": "13.022417"
    },
    {
        "OBJECTID": "211",
        "osm_id": "6436201786",
        "code": "2301",
        "fclass": "restaurant",
        "name": "Manao - Thai Restaurant",
        "type": "Thai cuisine",
        "rating": "4.9",
        "user_ratings_total": "167",
        "latitude": "47.8290008",
        "longitude": "13.0051613"
    },
    {
        "OBJECTID": "168",
        "osm_id": "5220319819",
        "code": "2301",
        "fclass": "restaurant",
        "name": "Wok Sushi Star",
        "type": "Japanese cuisine",
        "rating": "4.4",
        "user_ratings_total": "4275",
        "latitude": "47.8296576",
        "longitude": "13.0055202"
    },
    {
        "OBJECTID": "234",
        "osm_id": "7868893785",
        "code": "2301",
        "fclass": "restaurant",
        "name": "Senns",
        "type": "Austrian cuisine",
        "rating": "4.8",
        "user_ratings_total": "207",
        "latitude": "47.8360825",
        "longitude": "13.0633662"
    },
    {
        "OBJECTID": "199",
        "osm_id": "5810928198",
        "code": "2301",
        "fclass": "restaurant",
        "name": "Guru",
        "type": "Indian cuisine",
        "rating": "4.7",
        "user_ratings_total": "701",
        "latitude": "47.8376039",
        "longitude": "13.0594768"
    },
    {
        "OBJECTID": "165",
        "osm_id": "4992475926",
        "code": "2301",
        "fclass": "restaurant",
        "name": "Gasthaus Gann",
        "type": "Austrian cuisine",
        "rating": "3.7",
        "user_ratings_total": "39",
        "latitude": "47.8420159",
        "longitude": "13.005129"
    },
    {
        "OBJECTID": "88",
        "osm_id": "1746772515",
        "code": "2301",
        "fclass": "restaurant",
        "name": "ISI Bräu",
        "type": "Austrian cuisine",
        "rating": "4.5",
        "user_ratings_total": "68",
        "latitude": "47.8433876",
        "longitude": "13.0191597"
    }
]